[
  {
    "id": "indy-bitcoin-meetup",
    "name": "Indy Bitcoin Meetup",
    "frequency": "Monthly",
    "schedule": "Third Wednesday of each month at 7:00 PM",
    "day": "Wed",
    "venue": "Union Jack Pub",
    "address": "921 Broad Ripple Ave, Indianapolis, IN 46220",
    "city": "Indianapolis",
    "county": "Marion",
    "state": "IN",
    "zip": "46220",
    "lat": 39.8687,
    "lon": -86.1419,
    "links": [
      { "type": "website", "label": "indybitcoinmeetup.com", "url": "https://indybitcoinmeetup.com" },
      { "type": "meetup", "label": "meetup.com/indianapolis-bitcoin-meetup", "url": "https://www.meetup.com/indianapolis-bitcoin-meetup/" },
      { "type": "x", "label": "@IndyBitcoin", "url": "https://x.com/IndyBitcoin" }
    ]
  },
  {
    "id": "marion-bitcoin-meetup",
    "name": "Marion Bitcoin Meetup",
    "frequency": "Monthly",
    "schedule": "First Wednesday of each month at 6:00 PM",
    "day": "Wed",
    "venue": "OBI's BBQ",
    "address": "402 S Washington St, Marion, IN 46953",
    "city": "Marion",
    "county": "Grant",
    "state": "IN",
    "zip": "46953",
    "lat": 40.5569,
    "lon": -85.6596,
    "links": [
      { "type": "nostr", "label": "@Pleb2Polymath", "url": "https://primal.net/p/nprofile1qqsgmcmm3x987qfgzpaez6dc9kkgqwuc4m6w4xplv9ewl4pkqhg6nxgvxk2xc" }
    ],
    "notes": "Confirm details with the organizer; links TBD."
  }
]
